Garda Station,Latitude,Longitude
"35301 Abbeyfeale, Limerick Division",52.3851792,-9.3007966
"41201 Abbeyleix, Laois/Offaly Division",52.9152801,-7.347892300000001
"35302 Adare, Limerick Division",52.5636521,-8.7925281
"54101 Aglish, Waterford Division",52.0715072,-7.822269599999999
"23101 Ahascragh, Galway Division",53.3976127,-8.3346318
"12501 Ailt an Chorraiin, Donegal Division",54.9845286,-8.4326581
"12502 An Bun Beag, Donegal Division",55.060874,-8.3003485
"12503 An Charraig, Donegal Division",55.10454499999999,-8.2860585
"23601 An Cheathru Rua, Galway Division",53.2641084,-9.5982671
"12504 An Clochain Liath, Donegal Division",54.95028869999999,-8.357362799999999
"34101 An Coirean, Kerry Division",51.829465,-10.1745436
"12401 An Craoslach, Donegal Division",55.12334970000001,-7.909467599999999
"12402 An Fail Carrach, Donegal Division",54.6548993,-8.1040967
"23201 An Maim, Galway Division",53.5190912,-9.565811499999999
"54102 An Rinn, Waterford Division",52.04689450000001,-7.571887899999999
"23602 An Spideal, Galway Division",53.2441766,-9.3058803
"31101 Anglesea Street, Cork City Division",51.8959182,-8.4656304
"34303 Annascaul, Kerry Division",52.1510786,-10.0567611
"23301 Aran More, Galway Division",53.1288715,-9.7196641
"12507 Ard an Raitha, Donegal Division",54.6534759,-8.0977633
"14101 Ardee, Louth Division",53.8562568,-6.5394307
"34304 Ardfert, Kerry Division",52.3269477,-9.7807341
"51101 Ardfinnan, Tipperary Division",52.3092483,-7.8842292
"54103 Ardmore, Waterford Division",51.9510741,-7.725328999999999
"35201 Ardnacrusha, Limerick Division",52.7104277,-8.602863
"23401 Ardrahan, Galway Division",53.1564343,-8.8058651
"43301 Arklow, Wicklow Division",52.7973267,-6.1621885
"41202 Arles, Laois/Offaly Division",52.89297,-7.020919999999999
"11401 Arva, Cavan/Monaghan Division",53.9214383,-7.5799134
"42101 Ashbourne, Meath Division",53.5106742,-6.3969054
"43302 Ashford, Wicklow Division",53.0107896,-6.108289000000001
"35303 Askeaton, Limerick Division",52.6005095,-8.975062
"35304 Athea, Limerick Division",52.4606497,-9.287626
"23302 Athenry, Galway Division",53.30075369999999,-8.745493
"24501 Athleague, Roscommon/Longford Division",53.5676272,-8.2567472
"44101 Athlone, Westmeath Division",53.4239226,-7.940277499999999
"45101 Athy, Kildare Division",52.99235849999999,-6.9833981
"43303 Aughrim, Wicklow Division",52.8559337,-6.325933099999999
"43304 Avoca, Wicklow Division",52.8586664,-6.2140891
"42201 Baile Atha Bui, Meath Division",53.653042,-6.68423
"34305 Baile an Fheirtéaraigh, Kerry Division",52.16615,-10.40599
"33502 Baile Bhuirne, Cork West Division",51.9454917,-9.1640894
"11101 Bailieboro, Cavan/Monaghan Division",54.243563,-7.03949
"63101 Balbriggan, D.M.R. Northern Division",53.6083194,-6.182079799999999
"22301 Balla, Mayo Division",53.8043767,-9.1305014
"24201 Ballaghderreen, Roscommon/Longford Division",53.9016968,-8.5792106
"22201 Ballina, Mayo Division",54.1149482,-9.1550693
"11402 Ballinagh, Cavan/Monaghan Division",53.9302,-7.41044
"13201 Ballinamore, Sligo/Leitrim Division",54.0526458,-7.8010706
"23102 Ballinasloe, Galway Division",53.3281251,-8.2236807
"31201 Ballincollig, Cork City Division",51.888026,-8.594904099999999
"22401 Ballindine, Mayo Division",53.66925690000001,-8.9567295
"33101 Ballineen, Cork West Division",51.735556,-8.948611000000001
"51302 Ballingarry North, Tipperary Division",53.0176522,-8.0309972
"51501 Ballingarry South, Tipperary Division",52.5863379,-7.5416271
"35305 Ballingarry, Limerick Division",52.4732187,-8.8627555
"33102 Ballinhassig, Cork West Division",51.8123488,-8.537721099999999
"24202 Ballinlough, Roscommon/Longford Division",53.7418858,-8.6335579
"22402 Ballinrobe, Mayo Division",53.6237338,-9.2211143
"12101 Ballintra, Donegal Division",54.57884989999999,-8.1243234
"42401 Ballivor, Meath Division",53.5329521,-6.968071699999999
"53101 Ballon, Kilkenny/Carlow Division",52.6549027,-7.246402900000001
"11301 Ballybay, Cavan/Monaghan Division",54.13003089999999,-6.902762999999999
"12301 Ballybofey, Donegal Division",54.7968244,-7.787548099999999
"34201 Ballybunion, Kerry Division",52.51108,-9.670969999999999
"11201 Ballyconnell, Cavan/Monaghan Division",54.1162175,-7.583954299999999
"32401 Ballycotton, Cork North Division",51.8299148,-8.0097621
"22102 Ballycroy, Mayo Division",54.0238928,-9.8260445
"52301 Ballycullane, Wexford Division",52.2803179,-6.8397818
"33202 Ballydehob, Cork West Division",51.5644261,-9.463412199999999
"33401 Ballydesmond, Cork West Division",52.1796564,-9.2341524
"34202 Ballyduff, Co. Kerry, Kerry Division",52.45455159999999,-9.662905199999999
"66201 Ballyfermot, D.M.R. Western Division",53.3422507,-6.353559799999999
"23103 Ballygar, Galway Division",53.5238778,-8.3346912
"53301 Ballyhale, Kilkenny/Carlow Division",52.4669813,-7.2002655
"22501 Ballyhaunis, Mayo Division",53.7628378,-8.7645957
"34203 Ballyheigue, Kerry Division",52.3904645,-9.8277419
"11102 Ballyjamesduff, Cavan/Monaghan Division",53.86366409999999,-7.2072084
"35101 Ballylanders, Limerick Division",52.37351659999999,-8.3455064
"41205 Ballylinan, Laois/Offaly Division",52.94358829999999,-7.0420455
"54105 Ballymacarberry, Waterford Division",52.2670804,-7.717650399999999
"24407 Ballymahon, Roscommon/Longford Division",53.5642508,-7.764782800000001
"44103 Ballymore, Westmeath Division",53.4909131,-7.679746399999999
"13103 Ballymote, Sligo/Leitrim Division",54.0898507,-8.516575099999999
"63201 Ballymun, D.M.R. Northern Division",53.3968675,-6.2643161
"44201 Ballynacargy, Westmeath Division",53.5820789,-7.5364989
"35401 Ballyneety, Limerick Division",52.5977547,-8.5490207
"32201 Ballynoe, Cork North Division",52.05968499999999,-8.0975355
"51102 Ballyporeen, Tipperary Division",52.2701094,-8.0992106
"12102 Ballyshannon, Donegal Division",54.5029882,-8.1920416
"21201 Ballyvaughan, Clare Division",53.1155333,-9.149423299999999
"33302 Baltimore, Cork West Division",51.4843274,-9.3661093
"43101 Baltinglass, Wicklow Division",52.94110939999999,-6.7083115
"41101 Banagher, Laois/Offaly Division",53.1901112,-7.986104900000001
"33105 Bandon, Cork West Division",51.7454716,-8.7349449
"22103 Bangor Erris, Mayo Division",54.14464839999999,-9.7428784
"51601 Bansha, Tipperary Division",52.4482369,-8.0642959
"33203 Bantry, Cork West Division",51.6792697,-9.4504086
"23802 Barnaderg, Galway Division",53.4794878,-8.7205439
"34102 Barraduff, Kerry Division",52.0600263,-9.336300099999999
"33501 Béal atha an Ghaorthaidh, Cork West Division",51.903614,-8.468399
"22104 Béal an Mhuirthead, Mayo Division",54.2238996,-9.9876028
"11203 Belturbet, Cavan/Monaghan Division",54.10190559999999,-7.449668
"53302 Bennettsbridge, Kilkenny/Carlow Division",52.5923475,-7.1843272
"41102 Birr, Laois/Offaly Division",53.0980052,-7.909688200000001
"31401 Bishopstown, Cork City Division",51.87727049999999,-8.5307689
"11204 Blacklion, Cavan/Monaghan Division",54.2920639,-7.875127599999999
"31104 Blackrock, Co Cork, Cork City Division",51.8997347,-8.4024717
"65101 Blackrock, Co Dublin, D.M.R. Eastern Division",53.2992899,-6.185863899999999
"14301 Blackrock, Co Louth, Louth Division",53.96804160000001,-6.361808
"52101 Blackwater, Wexford Division",52.4473539,-6.346930299999999
"66101 Blanchardstown, D.M.R. Western Division",53.3839704,-6.377579
"31202 Blarney, Cork City Division",51.9338275,-8.5612438
"43102 Blessington, Wicklow Division",53.1696579,-6.534068700000001
"33402 Boherbue, Cork West Division",52.1582386,-9.0684828
"22203 Bonniconlon, Mayo Division",54.10908999999999,-9.03075
"53102 Borris, Kilkenny/Carlow Division",52.6012982,-6.9279771
"41206 Borris-In-Ossory, Laois/Offaly Division",52.9390414,-7.632163599999999
"51303 Borrisokane, Tipperary Division",52.9963736,-8.127325599999999
"51401 Borrisoleigh, Tipperary Division",52.7525257,-7.957887599999999
"23603 Bothar Na Tra, Galway Division",53.274001,-9.051266199999999
"24101 Boyle, Roscommon/Longford Division",53.9726447,-8.3037964
"43201 Bray, Wicklow Division",53.2010587,-6.1110501
"31105 Bridewell Cork, Cork City Division",51.9005301,-8.4769402
"62101 Bridewell Dublin, D.M.R. North Central Division",53.3470726,-6.2743992
"35102 Bruff, Limerick Division",52.4755485,-8.5474034
"35103 Bruree, Limerick Division",52.4243025,-8.6606015
"52201 Bunclody, Wexford Division",52.6550857,-6.652193
"12201 Buncrana, Donegal Division",55.1365797,-7.4560128
"12103 Bundoran, Donegal Division",54.4791416,-8.2779341
"12202 Burnfoot, Donegal Division",55.0583056,-7.4049447
"32301 Buttevant, Cork North Division",52.2321335,-8.670124699999999
"65201 Cabinteely, D.M.R. Eastern Division",53.261305,-6.150436399999999
"66102 Cabra, D.M.R. Western Division",53.26114,-7.52713
"34104 Caherciveen, Kerry Division",51.9477992,-10.2209047
"35402 Caherconlish, Limerick Division",52.5951658,-8.4723577
"51103 Cahir, Tipperary Division",52.3745296,-7.925246899999999
"53202 Callan, Kilkenny/Carlow Division",52.544567,-7.390170899999999
"52303 Campile, Wexford Division",52.2881507,-6.9413872
"35104 Cappamore, Limerick Division",52.6149925,-8.3377813
"51602 Cappawhite, Tipperary Division",52.5820231,-8.167577699999999
"54106 Cappoquin, Waterford Division",52.1462713,-7.842743799999999
"45201 Carbury, Kildare Division",53.3560513,-6.964046199999999
"14302 Carlingford, Louth Division",54.0468677,-6.190181
"53103 Carlow, Kilkenny/Carlow Division",52.8359963,-6.924607399999999
"23202 Carna, Galway Division",53.32421679999999,-9.8361074
"12203 Carndonagh, Donegal Division",55.2506229,-7.266890500000001
"43103 Carnew, Wicklow Division",52.7096658,-6.4992316
"12403 Carraig Airt, Donegal Division",55.1775506,-7.793277699999999
"52304 Carrickbyrne, Wexford Division",52.36478,-6.77724
"11302 Carrickmacross, Cavan/Monaghan Division",53.9779778,-6.7188238
"52305 Carrick-on-Bannow, Wexford Division",52.23893140000001,-6.732336500000001
"13202 Carrick-On-Shannon, Sligo/Leitrim Division",53.9450799,-8.0865156
"51201 Carrick-On-Suir, Tipperary Division",52.3468118,-7.4147906
"512015 Carrig na Bhfear, Cork City Division",51.9891078,-8.477924
"31402 Carrigaline, Cork City Division",51.81644009999999,-8.3912667
"13203 Carrigallen, Sligo/Leitrim Division",53.9769348,-7.644325899999999
"12302 Carrigans, Donegal Division",54.9512185,-7.428285199999999
"32102 Carrigtwohill, Cork North Division",51.9094919,-8.2589402
"51104 Cashel, Tipperary Division",52.51590969999999,-7.8915829
"22304 Castlebar, Mayo Division",53.8517129,-9.2934089
"14102 Castlebellingham, Louth Division",53.8978634,-6.3894299
"11303 Castleblayney, Cavan/Monaghan Division",54.1207115,-6.739949999999999
"52402 Castlebridge, Wexford Division",52.3824281,-6.4502872
"53203 Castlecomer, Kilkenny/Carlow Division",52.8052843,-7.210312699999998
"35202 Castleconnell, Limerick Division",52.7129297,-8.500052499999999
"45103 Castledermot, Kildare Division",52.9118755,-6.837567
"12303 Castlefin, Donegal Division",54.802999,-7.5895814
"34307 Castlegregory, Kerry Division",52.25346510000001,-10.0207218
"34308 Castleisland, Kerry Division",52.2328974,-9.4601492
"34309 Castlemaine, Kerry Division",52.1684322,-9.7014756
"44202 Castlepollard, Westmeath Division",53.6800722,-7.2964508
"24204 Castlerea, Roscommon/Longford Division",53.7686571,-8.4924537
"33204 Castletownbere, Cork West Division",51.65149539999999,-9.910330199999999
"32202 Castletownroche, Cork North Division",52.1731113,-8.4634479
"11403 Cavan, Cavan/Monaghan Division",53.9988846,-7.3732044
"45202 Celbridge, Kildare Division",53.3387702,-6.5394381
"22502 Charlestown, Mayo Division",53.9640248,-8.7926035
"32302 Charleville, Cork North Division",52.3553037,-8.6836872
"23604 Cill Ronain, Galway Division",53.1232125,-9.670372799999999
"45302 Clane, Kildare Division",53.293785,-6.6870404
"41301 Clara, Laois/Offaly Division",53.3425103,-7.613480099999999
"22403 Claremorris, Mayo Division",53.72387639999999,-9.0017356
"23203 Clifden, Galway Division",53.4891345,-10.0202388
"23204 Cloch na Ron, Galway Division",53.39642079999999,-9.919018399999999
"41103 Cloghan, Co. Offaly, Laois/Offaly Division",53.13,-7.529999999999999
"51105 Clogheen, Co. Tipperary, Tipperary Division",52.2770794,-7.9951028
"12508 Clogher, Donegal Division",54.6596621,-8.649352499999999
"14201 Clogherhead, Louth Division",53.7916777,-6.2388506
"33304 Clonakilty, Cork West Division",51.6203379,-8.905510399999999
"24503 Clonark, Roscommon/Longford Division",53.36854,-8.03211
"41207 Clonaslee, Laois/Offaly Division",53.1486014,-7.524369599999999
"41302 Clonbologue, Laois/Offaly Division",53.26068309999999,-7.086431
"66202 Clondalkin, D.M.R. Western Division",53.32030260000001,-6.3946345
"11501 Clones, Cavan/Monaghan Division",54.1796829,-7.230667100000001
"12204 Clonmany, Donegal Division",55.2628052,-7.411610800000001
"51202 Clonmel, Tipperary Division",52.3623523,-7.7007084
"52102 Clonroche, Wexford Division",52.4496872,-6.7174157
"63401 Clontarf, D.M.R. Northern Division",53.77975540000001,-7.3055309
"51304 Cloughjordan, Tipperary Division",52.9429442,-8.0383372
"32402 Cloyne, Cork North Division",51.8630971,-8.121236999999999
"33503 Coachford, Cork West Division",51.909471,-8.788960099999999
"32103 Cobh, Cork North Division",51.8530415,-8.295090499999999
"14103 Collon, Louth Division",53.7777425,-6.4840991
"13302 Collooney, Sligo/Leitrim Division",54.1802746,-8.490293099999999
"22404 Cong, Mayo Division",53.54168439999999,-9.2834604
"12304 Convoy, Donegal Division",54.859725,-7.6654466
"13303 Coolaney, Sligo/Leitrim Division",54.17380929999999,-8.6008023
"63301 Coolock, D.M.R. Northern Division",53.77975540000001,-7.3055309
"11103 Cootehill, Cavan/Monaghan Division",54.0725034,-7.0823541
"21203 Corofin Co. Clare, Clare Division",52.9448216,-9.0640874
"23803 Corofin Co. Galway, Galway Division",53.437565,-8.8602715
"52202 Courtown Harbour, Wexford Division",52.6448624,-6.2286169
"23402 Craughwell, Galway Division",53.2302689,-8.7347736
"23104 Creggs, Galway Division",53.5937893,-8.361671
"33504 Crookstown, Cork West Division",51.84242700000001,-8.830431899999999
"35307 Croom, Limerick Division",52.519036,-8.7174345
"31403 Crosshaven, Cork City Division",51.8022632,-8.2904494
"22204 Crossmolina, Mayo Division",54.100342,-9.3158456
"64101 Crumlin, D.M.R. Southern Division",53.67174,-8.54849
"21101 Crusheen, Clare Division",52.9386532,-8.8967688
"41303 Daingean, Laois/Offaly Division",53.2960818,-7.291967
"44204 Delvin, Westmeath Division",53.6125653,-7.0917224
"34310 Dingle, Kerry Division",52.1408534,-10.2671142
"51305 Dolla, Tipperary Division",52.79794219999999,-8.1886721
"12104 Donegal Town, Donegal Division",54.653827,-8.1096142
"32303 Doneraile, Cork North Division",52.2151735,-8.585977399999999
"61101 Donnybrook, D.M.R. South Central Division",53.322876,-6.238141499999999
"31404 Douglas, Cork City Division",51.8711662,-8.4242008
"11205 Dowra, Cavan/Monaghan Division",54.1900827,-8.0162777
"33205 Drimoleague, Cork West Division",51.6599357,-9.261245299999999
"33305 Drinagh, Cork West Division",51.6513982,-9.1471506
"14202 Drogheda, Louth Division",53.7179018,-6.356423100000001
"14303 Drumad, Louth Division",54.084628,-6.3596593
"35308 Drumcollogher, Limerick Division",52.3396079,-8.9076419
"24303 Drumlish, Roscommon/Longford Division",53.82059030000001,-7.768414
"13206 Drumshambo, Sligo/Leitrim Division",54.2775969,-8.4715258
"63202 Dublin Airport, D.M.R. Northern Division",53.425632,-6.257375499999999
"42102 Duleek, Meath Division",53.6547501,-6.4221752
"12404 Dun Fionnachaid, Donegal Division",54.6548993,-8.1040967
"65203 Dun Laoghaire, D.M.R. Eastern Division",53.2949656,-6.142669
"42103 Dunboyne, Meath Division",53.4192677,-6.4758857
"52306 Duncannon, Wexford Division",52.2206117,-6.9325606
"14304 Dundalk, Louth Division",54.0024774,-6.388300099999999
"65102 Dundrum, D.M.R. Eastern Division",52.5595234,-8.043225099999999
"54107 Dungarvan, Waterford Division",52.0932368,-7.6304404
"43105 Dunlavin, Wicklow Division",53.0578764,-6.7016395
"14203 Dunleer, Louth Division",53.8310533,-6.3944559
"33306 Dunmanway, Cork West Division",51.7222571,-9.1118088
"54301 Dunmore East, Waterford Division",52.1527666,-6.994803999999999
"23804 Dunmore, Galway Division",53.6180163,-8.7441461
"42104 Dunshaughlin, Meath Division",53.5135229,-6.540252499999999
"41208 Durrow, Laois/Offaly Division",53.2356871,-7.7122229
"33206 Durrus, Cork West Division",51.6217112,-9.521993
"41304 Edenderry, Laois/Offaly Division",53.3432235,-7.0517202
"24304 Edgeworthstown, Roscommon/Longford Division",53.6956862,-7.608492999999999
"24103 Elphin, Roscommon/Longford Division",53.845726,-8.1919753
"51604 Emly, Tipperary Division",52.4633291,-8.3498992
"11503 Emyvale, Cavan/Monaghan Division",54.3409914,-6.959261199999999
"42402 Enfield, Meath Division",53.4142026,-6.8296541
"21102 Ennis, Clare Division",52.8470321,-8.9883123
"52103 Enniscorthy, Wexford Division",52.5031703,-6.5731293
"13106 Enniscrone, Sligo/Leitrim Division",54.2136818,-9.090835199999999
"43202 Enniskerry, Wicklow Division",53.1935037,-6.1707299
"21205 Ennistymon, Clare Division",52.940372,-9.2934951
"23501 Eyrecourt, Galway Division",53.1997171,-8.131427
"34311 Farranfore, Kerry Division",52.1719869,-9.5505078
"41104 Ferbane, Laois/Offaly Division",53.27195,-7.8278719
"32203 Fermoy, Cork North Division",52.1378017,-8.2752606
"52104 Ferns, Wexford Division",52.5909249,-6.498010499999999
"54302 Ferrybank, Waterford Division",52.2671181,-7.1035588
"51203 Fethard, Tipperary Division",52.4659436,-7.6927334
"66103 Finglas, D.M.R. Western Division",53.390325,-6.298400699999999
"62202 Fitzgibbon Street, D.M.R. North Central Division",53.3579137,-6.2558584
"22503 Foxford, Mayo Division",53.98077259999999,-9.113245
"35309 Foynes, Limerick Division",52.6102719,-9.104861699999999
"24205 Frenchpark, Roscommon/Longford Division",53.8695107,-8.4074282
"53204 Freshford, Kilkenny/Carlow Division",52.73250669999999,-7.3981631
"23304 Gaillimh, Galway Division",53.274001,-9.051266199999999
"63102 Garristown, D.M.R. Northern Division",53.5668673,-6.3835624
"32104 Glanmire, Cork City Division",51.9177097,-8.3981691
"32304 Glantaine, Cork North Division",52.1037226,-8.7557939
"42407 Glasson, Westmeath Division",53.4699107,-7.863907299999999
"22106 Gleann na Muaidhe, Mayo Division",54.2409359,-9.6760342
"23805 Glenamaddy, Galway Division",53.6055461,-8.5604032
"34105 Glenbeigh, Kerry Division",52.0561861,-9.9403477
"33207 Glengarriff, Cork West Division",51.7500277,-9.5522224
"53303 Glenmore, Kilkenny/Carlow Division",52.352761,-7.025626399999999
"35310 Glin, Limerick Division",52.5688921,-9.2819067
"52403 Glynn, Wexford Division",52.3735916,-6.5855277
"22601 Gob an Choire, Mayo Division",53.9302564,-9.9266332
"51605 Golden, Tipperary Division",52.4984411,-7.980749500000001
"53304 Goresbridge, Kilkenny/Carlow Division",52.6297084,-6.9940878
"52203 Gorey, Wexford Division",52.675307,-6.295941
"23403 Gort, Galway Division",53.0666432,-8.8187486
"53305 Graiguenamanagh, Kilkenny/Carlow Division",52.54406160000001,-6.959308999999999
"24305 Granard, Roscommon/Longford Division",53.7791755,-7.4923774
"13304 Grange, Sligo/Leitrim Division",54.3932789,-8.5220973
"43203 Greystones, Wicklow Division",53.1491175,-6.0793414
"31203 Gurranabraher, Cork City Division",51.9034612,-8.490449
"13107 Gurteen, Sligo/Leitrim Division",53.99590019999999,-8.5226889
"14305 Hackballscross, Louth Division",54.03164,-6.5248
"53104 Hacketstown, Kilkenny/Carlow Division",52.8653857,-6.5586053
"23806 Headford, Galway Division",53.4694617,-9.106133999999999
"35203 Henry Street, Limerick Division",52.6609511,-8.6317237
"51503 Holycross, Tipperary Division",52.6397686,-7.870179299999998
"35107 Hospital Co Limerick, Limerick Division",52.4743003,-8.4324543
"63402 Howth, D.M.R. Northern Division",53.3801223,-6.0575651
"23605 Indreabhain, Galway Division",53.24031129999999,-9.4655489
"33106 Innishannon, Cork West Division",51.7649008,-8.6574773
"61102 Irishtown, D.M.R. South Central Division",53.6627806,-8.8900518
"33403 Kanturk, Cork North Division",52.1774532,-8.903355399999999
"24104 Keadue, Roscommon/Longford Division",54.0511423,-8.1377557
"33209 Kealkil, Cork West Division",51.7497062,-9.3813395
"22602 Keel, Mayo Division",53.9744322,-10.0852574
"42203 Kells Ceanannus Mor, Meath Division",53.7268353,-6.8748325
"24401 Kenagh, Roscommon/Longford Division",53.622007,-7.8147206
"34106 Kenmare, Kerry Division",51.8801017,-9.583520199999999
"12405 Kerrykeel, Donegal Division",55.13872,-7.662849999999999
"61301 Kevin Street, D.M.R. South Central Division",53.41291,-8.24389
"44105 Kilbeggan, Westmeath Division",53.3684574,-7.4994634
"33107 Kilbrittain, Cork West Division",51.6735577,-8.6917337
"45203 Kilcock, Kildare Division",53.3994266,-6.6681233
"23105 Kilconnell, Galway Division",53.3314659,-8.401432699999999
"41105 Kilcormac, Laois/Offaly Division",53.1764113,-7.7274112
"45303 Kilcullen, Kildare Division",53.1302865,-6.745279099999999
"45104 Kildare, Kildare Division",53.15980589999999,-6.9089763
"32204 Kildorrery, Cork North Division",52.2464986,-8.4273898
"21206 Kildysart, Clare Division",52.6739738,-9.1075349
"21207 Kilkee, Clare Division",52.6828228,-9.6444116
"22504 Kilkelly, Mayo Division",53.87179219999999,-8.8502415
"53206 Kilkenny, Kilkenny/Carlow Division",52.6549027,-7.246402900000001
"54201 Kill, Co Waterford, Waterford Division",52.1758844,-7.335392100000001
"22205 Killala, Mayo Division",54.2125146,-9.220999899999999
"21104 Killaloe, Clare Division",52.808886,-8.4475152
"34108 Killarney, Kerry Division",52.0599609,-9.504537000000001
"32403 Killeagh, Cork North Division",51.9424888,-7.9920158
"51504 Killenaule, Tipperary Division",52.5684251,-7.6734719
"11206 Killeshandra, Cavan/Monaghan Division",54.0138727,-7.5282313
"23502 Killimor, Galway Division",53.1656231,-8.2910516
"34109 Killorglin, Kerry Division",52.10635079999999,-9.7843403
"44206 Killucan, Westmeath Division",53.5136852,-7.142785699999999
"53307 Kilmacow, Kilkenny/Carlow Division",52.31208050000001,-7.1765298
"12406 Kilmacrennan, Donegal Division",55.030269,-7.7793541
"54202 Kilmacthomas, Waterford Division",52.2054997,-7.426680099999999
"22406 Kilmaine, Mayo Division",53.5811547,-9.1227567
"61302 Kilmainham, D.M.R. South Central Division",53.3430611,-6.3215398
"35109 Kilmallock, Limerick Division",52.3986185,-8.5715956
"54203 Kilmeaden, Waterford Division",52.23333,-7.24281
"53308 Kilmoganny, Kilkenny/Carlow Division",52.46147269999999,-7.3282056
"52404 Kilmore Quay, Wexford Division",52.17571940000001,-6.5863919
"11404 Kilnaleck, Cavan/Monaghan Division",53.8622249,-7.3213784
"23503 Kilrickle, Galway Division",53.2306925,-8.4529906
"21208 Kilmihil , Clare Division",52.7208888,-9.3198723
"21209 Kilrush, Clare Division",52.6406999,-9.4859374
"51205 Kilsheelan, Tipperary Division",52.3611942,-7.580387699999999
"22505 Kiltimagh, Mayo Division",53.8494839,-8.9994739
"23106 Kiltormer, Galway Division",53.2355071,-8.2733888
"32205 Kilworth, Cork North Division",52.1760533,-8.247312299999999
"11104 Kingscourt, Cavan/Monaghan Division",53.9068739,-6.8052229
"13208 Kinlough, Sligo/Leitrim Division",54.4487146,-8.2858213
"44207 Kinnegad, Westmeath Division",53.4568103,-7.1049959
"41106 Kinnitty, Laois/Offaly Division",53.097806,-7.7189969
"33108 Kinsale, Cork West Division",51.7058853,-8.5222327
"23406 Kinvara, Galway Division",53.1389085,-8.9362964
"22407 Knock, Mayo Division",53.7900638,-8.921465999999999
"34206 Knocknagoshel, Kerry Division",52.3313435,-9.38178
"24402 Lanesboro, Roscommon/Longford Division",53.67245459999999,-7.9863962
"42105 Laytown, Meath Division",53.6853371,-6.241164299999999
"23306 Leach Seoirse, Galway Division",53.274001,-9.051266199999999
"54204 Leamybrien, Waterford Division",52.1683402,-7.519583700000001
"23606 Leitir Mor, Galway Division",53.2887484,-9.655943700000002
"45204 Leixlip, Kildare Division",53.36384280000001,-6.4900033
"23206 Letterfrack, Galway Division",53.55360340000001,-9.9482317
"12305 Letterkenny, Donegal Division",54.9533201,-7.7287972
"12306 Lifford, Donegal Division",54.8319619,-7.4835927
"32305 Liscarroll, Cork North Division",52.2600728,-8.8041711
"21211 Lisdoonvarna, Clare Division",53.0301669,-9.2897106
"54108 Lismore, Waterford Division",52.13581840000001,-7.9376803
"34207 Listowel, Kerry Division",52.4455769,-9.4862893
"51505 Littleton, Tipperary Division",52.6369829,-7.735418999999998
"34208 Lixnaw, Kerry Division",52.4064615,-9.6181275
"24403 Longford, Roscommon/Longford Division",53.52341269999999,-7.340730400000001
"42404 Longwood, Meath Division",53.4550101,-6.9247866
"51306 Lorrha, Tipperary Division",53.0931067,-8.1228038
"23504 Loughrea, Galway Division",53.1990527,-8.5651876
"22603 Louisburgh, Mayo Division",53.7631376,-9.8090849
"14104 Louth, Louth Division",53.9507955,-6.5406821
"66301 Lucan, D.M.R. Western Division",53.3572085,-6.4498488
"63103 Lusk, D.M.R. Northern Division",53.52632639999999,-6.1658841
"33506 Macroom, Cork West Division",51.9047559,-8.958378399999999
"23607 Maigh Cuilinn, Galway Division",53.3387481,-9.1814776
"63302 Malahide, D.M.R. Northern Division",53.4509236,-6.1501378
"32306 Mallow, Cork North Division",52.13897619999999,-8.6539164
"13209 Manorhamilton, Sligo/Leitrim Division",54.3048735,-8.1766956
"31407 Mayfield, Cork City Division",51.91426509999999,-8.4356118
"45205 Maynooth, Kildare Division",53.3815491,-6.5910382
"35205 Mayorstone Park, Limerick Division",52.6732514,-8.6443282
"32404 Midleton, Cork North Division",51.9143321,-8.1726276
"32307 Milford, Co Cork, Cork North Division",52.3407344,-8.8557344
"12408 Milford, Co Donegal, Donegal Division",55.0883927,-7.698962099999999
"33406 Millstreet, Co. Cork, Cork West Division",52.06013180000001,-9.0647121
"23808 Milltown, Galway Division",53.6137016,-8.898962000000001
"21212 Miltown Malbay, Clare Division",52.8562013,-9.4007763
"32206 Mitchelstown, Cork North Division",52.2662127,-8.2698863
"44106 Moate, Westmeath Division",53.3949987,-7.7186188
"13211 Mohill, Sligo/Leitrim Division",53.9218288,-7.865310099999999
"11504 Monaghan, Cavan/Monaghan Division",54.2492434,-6.9683082
"45105 Monasterevin, Kildare Division",53.1400651,-7.060377
"51402 Moneygall, Tipperary Division",52.87973760000001,-7.9578079
"23307 Monivea, Galway Division",53.37426199999999,-8.702721
"53309 Mooncoin, Kilkenny/Carlow Division",52.8359963,-6.924607399999999
"23108 Mountbellew, Galway Division",53.47188,-8.5049
"12106 Mountcharles, Donegal Division",54.6474421,-8.1947189
"62203 Mountjoy, D.M.R. North Central Division",54.6468301,-7.354629999999999
"41209 Mountmellick, Laois/Offaly Division",53.1181481,-7.3267379
"41210 Mountrath, Laois/Offaly Division",53.0025597,-7.4751396
"12207 Moville, Donegal Division",55.1890182,-7.040053299999999
"23109 Moylough, Galway Division",53.48770529999999,-8.565876
"51403 Moyne, Tipperary Division",52.7358618,-7.7147009
"12208 Muff, Donegal Division",55.0680564,-7.2689498
"53106 Muine Bheag, Kilkenny/Carlow Division",52.5776957,-7.218001999999999
"11105 Mullagh, Cavan/Monaghan Division",53.8115174,-6.945981799999999
"51206 Mullinahone, Tipperary Division",52.512032,-7.505708599999999
"53310 Mullinavat, Kilkenny/Carlow Division",52.3679303,-7.1711881
"44208 Mullingar, Westmeath Division",53.5256075,-7.341880600000001
"44209 Multyfarnham, Westmeath Division",53.6252723,-7.3893159
"35110 Murroe, Limerick Division",52.649444,-8.39949
"53107 Myshall, Kilkenny/Carlow Division",52.6858791,-6.7804051
"12107 Na Cealla Beaga, Donegal Division",54.6347625,-8.4547084
"12510 Na Gleannta, Donegal Division",54.7955086,-8.2812625
"45305 Naas, Kildare Division",53.2244337,-6.653003
"42301 Navan, Meath Division",53.647092,-6.6966605
"51307 Nenagh, Tipperary Division",52.863893,-8.1981541
"52307 New Ross, Wexford Division",52.3958337,-6.945456699999999
"45106 Newbridge, Kildare Division",53.17507579999999,-6.8047467
"35312 Newcastle West, Limerick Division",52.4495561,-9.05983
"21106 Newmarket on Fergus, Clare Division",52.7605328,-8.895750099999999
"33407 Newmarket, Cork North Division",52.2140232,-9.0030815
"22605 Newport, Co Mayo, Mayo Division",53.8852758,-9.5463685
"51308 Newport, Co Tipperary, Tipperary Division",52.71089629999999,-8.406208399999999
"12308 Newtowncunningham, Donegal Division",54.99881749999999,-7.5127836
"43204 Newtownmountkennedy, Wicklow Division",53.0927815,-6.112023
"42302 Nobber, Meath Division",53.8217066,-6.747939799999999
"42204 Oldcastle, Meath Division",53.7700178,-7.162411799999999
"14306 Omeath, Louth Division",54.0882604,-6.2593365
"35111 Oola, Limerick Division",52.5296598,-8.2596358
"23608 Oughterard, Galway Division",53.42854810000001,-9.3189472
"52106 Oulart, Wexford Division",52.5039145,-6.390861699999999
"52107 Oylegate, Wexford Division",52.42101,-6.52994
"35112 Pallasgreen, Limerick Division",52.54873,-8.355184999999999
"35313 Pallaskenry, Limerick Division",52.6447411,-8.8674281
"22306 Partry, Mayo Division",53.6963867,-9.2780532
"54303 Passage East, Waterford Division",52.2396938,-6.974394999999999
"31405 Passage West, Cork City Division",51.8720626,-8.3362128
"35403 Patrickswell, Limerick Division",52.5980577,-8.707284399999999
"61202 Pearse Street, D.M.R. South Central Division",53.3439483,-6.2483434
"12108 Pettigo, Donegal Division",54.54943,-7.832033900000001
"53311 Piltown, Kilkenny/Carlow Division",52.3511631,-7.331338099999999
"41211 Portarlington, Laois/Offaly Division",53.1620332,-7.189573999999999
"41212 Portlaoise, Laois/Offaly Division",53.03276169999999,-7.2995375
"54205 Portlaw, Waterford Division",52.28926569999999,-7.3147439
"34111 Portmagee, Kerry Division",51.8854295,-10.36194
"51309 Portroe, Tipperary Division",52.8847,-8.344875
"23506 Portumna, Galway Division",53.0927811,-8.218540599999999
"63403 Raheny, D.M.R. Northern Division",53.3804065,-6.1750943
"12409 Ramelton, Donegal Division",55.03590000000001,-7.64809
"12309 Raphoe, Donegal Division",54.8738705,-7.5994379
"45107 Rathangan, Kildare Division",53.2210179,-6.9945422
"66203 Rathcoole, D.M.R. Western Division",53.2817307,-6.466167
"32207 Rathcormac, Co Cork, Cork North Division",52.07613,-8.28176
"41213 Rathdowney, Laois/Offaly Division",52.8555198,-7.584797300000001
"43305 Rathdrum, Wicklow Division",52.93231230000001,-6.231101199999999
"64201 Rathfarnham, D.M.R. Southern Division",53.3004978,-6.2838544
"54206 Rathgormack, Co Waterford, Waterford Division",52.30536129999999,-7.495986299999999
"35314 Rathkeale, Limerick Division",52.5225255,-8.9403655
"64301 Rathmines, D.M.R. Southern Division",53.3218816,-6.2655052
"33408 Rathmore, Co Kerry, Cork West Division",52.0842484,-9.2184337
"12410 Rathmullen, Donegal Division",55.0970707,-7.5363061
"53108 Rathvilly, Kilkenny/Carlow Division",52.87983449999999,-6.6960481
"41306 Rhode, Laois/Offaly Division",53.3499888,-7.198962900000001
"13108 Riverstown, Sligo/Leitrim Division",54.1304398,-8.3952507
"45306 Robertstown, Kildare Division",53.269268,-6.815316399999999
"44211 Rochfortbridge, Westmeath Division",53.4146417,-7.2996835
"11305 Rockcorry, Cavan/Monaghan Division",54.1178982,-7.0148381
"66302 Ronanstown, D.M.R. Western Division",53.3407769,-6.402021899999999
"24105 Roosky, Roscommon/Longford Division",53.72658699999999,-7.7963517
"23609 Ros Muc, Galway Division",53.341493,-9.6132326
"24505 Roscommon, Roscommon/Longford Division",53.634027,-8.182134
"51404 Roscrea, Tipperary Division",52.9551789,-7.798469600000001
"33307 Rosscarbery, Cork West Division",51.57767,-9.038
"13305 Rosses Point, Sligo/Leitrim Division",54.3047546,-8.5640206
"52405 Rosslare Harbour, Wexford Division",52.2513061,-6.3414908
"52406 Rosslare Strand, Wexford Division",52.2720275,-6.3892254
"43306 Roundwood, Wicklow Division",53.0657875,-6.2241877
"35404 Roxboro Road, Limerick Division",52.6550082,-8.6176154
"63203 Santry, D.M.R. Northern Division",53.4022306,-6.2373559
"21108 Scariff, Clare Division",52.9088498,-8.533109
"33210 Schull, Cork West Division",51.526867,-9.5479801
"11506 Scotstown, Cavan/Monaghan Division",54.2778889,-7.066951400000001
"65205 Shankill, D.M.R. Eastern Division",53.83624,-7.77837
"21109 Shannon, Clare Division",52.71178219999999,-8.8783365
"11106 Shercock, Cavan/Monaghan Division",53.9950108,-6.8979854
"51405 Shevry, Tipperary Division",52.6894654,-8.050235299999999
"43107 Shillelagh, Wicklow Division",52.7545156,-6.533460499999999
"41108 Shinrone, Laois/Offaly Division",52.9844035,-7.9245622
"22408 Shrule, Mayo Division",53.5202745,-9.0883693
"21110 Sixmilebridge, Clare Division",52.7420054,-8.772400500000002
"63105 Skerries, D.M.R. Northern Division",53.5805519,-6.1078779
"33308 Skibbereen, Cork West Division",51.55592439999999,-9.262130299999999
"13306 Skreen, Sligo/Leitrim Division",54.2408784,-8.7316374
"42303 Slane, Meath Division",53.7086474,-6.543651199999999
"13307 Sligo, Sligo/Leitrim Division",54.2775969,-8.4715258
"24306 Smear, Roscommon/Longford Division",53.8845317,-7.5933778
"34112 Sneem, Kerry Division",51.8373942,-9.8983245
"23207 Sraith Salach, Galway Division",53.4655285,-9.7237017
"53312 Stoneyford, Kilkenny/Carlow Division",52.8359963,-6.924607399999999
"62301 Store Street, D.M.R. North Central Division",53.3500264,-6.2515413
"41214 Stradbally Co Laois, Laois/Offaly Division",53.01579830000001,-7.149471699999999
"24106 Strokestown, Roscommon/Longford Division",53.7758666,-8.1035319
"33507 Stuake, Cork West Division",51.99185,-8.756359999999999
"42405 Summerhill, Meath Division",53.4813655,-6.732514699999999
"64102 Sundrive Road, D.M.R. Southern Division",53.3245112,-6.2959712
"11207 Swanlinbar, Cavan/Monaghan Division",54.1937636,-7.7047113
"22506 Swinford, Mayo Division",53.9437021,-8.950006
"63303 Swords, D.M.R. Northern Division",53.4557467,-6.219740600000001
"52407 Taghmon, Wexford Division",52.3229838,-6.6546699
"64202 Tallaght, D.M.R. Southern Division",53.28817830000001,-6.3575934
"54109 Tallow, Waterford Division",52.09214069999999,-8.007030199999999
"34210 Tarbert, Kerry Division",52.5724738,-9.374537199999999
"33508 Tarelton, Cork West Division",51.84509,-8.99058
"24506 Taughmaconnell, Roscommon/Longford Division",53.3940037,-8.1720671
"51406 Templederry, Tipperary Division",52.7742838,-8.0731293
"51407 Templemore, Tipperary Division",52.794802,-7.839860900000001
"51408 Templetuohy, Tipperary Division",52.78847,-7.721649999999999
"64302 Terenure, D.M.R. Southern Division",53.31041579999999,-6.2898931
"53313 Thomastown, Kilkenny/Carlow Division",52.5264574,-7.1383205
"51506 Thurles, Tipperary Division",52.67895559999999,-7.813466399999999
"33109 Timoleague, Cork West Division",51.6432296,-8.766188699999999
"43108 Tinahely, Wicklow Division",52.7997634,-6.463184399999999
"51606 Tipperary, Tipperary Division",52.4736499,-8.161800399999999
"31406 Togher, Cork City Division",51.8766551,-8.4955764
"51312 Toomevara, Tipperary Division",52.85071629999999,-8.0350506
"34313 Tralee, Kerry Division",52.2713096,-9.6999325
"54208 Tramore, Waterford Division",52.16143539999999,-7.1492952
"42406 Trim, Meath Division",53.5523129,-6.793526399999999
"23809 Tuam, Galway Division",53.5141156,-8.8565177
"13109 Tubbercurry, Sligo/Leitrim Division",54.0548904,-8.730457
"21111 Tulla, Clare Division",52.8692148,-8.7607816
"41307 Tullamore, Laois/Offaly Division",53.2752768,-7.4924439
"53109 Tullow, Kilkenny/Carlow Division",52.8028723,-6.7365072
"24207 Tulsk, Roscommon/Longford Division",53.7799868,-8.2560526
"53207 Urlingford, Kilkenny/Carlow Division",52.7205983,-7.5821799
"11108 Virginia, Cavan/Monaghan Division",53.8344096,-7.0813222
"31304 Watercourse Road, Cork City Division",51.9085669,-8.4739558
"54304 Waterford, Waterford Division",52.2572983,-7.1115235
"32106 Watergrasshill, Cork North Division",52.0113682,-8.3440414
"22606 Westport, Mayo Division",53.8011456,-9.5222281
"52408 Wexford, Wexford Division",52.336916,-6.4633381
"32405 Whitegate, Cork North Division",51.8267841,-8.2321121
"43307 Wicklow, Wicklow Division",52.9807857,-6.046806
"23810 Williamstown, Galway Division",53.6777196,-8.579964
"23508 Woodford, Galway Division",53.0521803,-8.4002368
"32406 Youghal, Cork North Division",51.9542704,-7.8471707
